{
"type": "FeatureCollection",
"name": "metro_stations",
"crs": { "type": "name", "properties": { "name": "urn:ogc:def:crs:OGC:1.3:CRS84" } },
"features": [
{ "type": "Feature", "properties": { "FID CODE": 0, "NAME": "淡水站" }, "geometry": { "type": "Point", "coordinates": [ 121.4452583081884, 25.167993283329395 ] } },
{ "type": "Feature", "properties": { "FID CODE": 1, "NAME": "紅樹林站" }, "geometry": { "type": "Point", "coordinates": [ 121.458954512046134, 25.154114157533733 ] } },
{ "type": "Feature", "properties": { "FID CODE": 2, "NAME": "竹圍站" }, "geometry": { "type": "Point", "coordinates": [ 121.45945645181078, 25.136949033211359 ] } },
{ "type": "Feature", "properties": { "FID CODE": 3, "NAME": "關渡站" }, "geometry": { "type": "Point", "coordinates": [ 121.46719972493716, 25.125784713139591 ] } },
{ "type": "Feature", "properties": { "FID CODE": 4, "NAME": "忠義站" }, "geometry": { "type": "Point", "coordinates": [ 121.473122240970298, 25.130750885216681 ] } },
{ "type": "Feature", "properties": { "FID CODE": 5, "NAME": "新北投站" }, "geometry": { "type": "Point", "coordinates": [ 121.502531171385343, 25.136936401899067 ] } },
{ "type": "Feature", "properties": { "FID CODE": 6, "NAME": "北投站" }, "geometry": { "type": "Point", "coordinates": [ 121.498591159862414, 25.131907048775716 ] } },
{ "type": "Feature", "properties": { "FID CODE": 7, "NAME": "奇岩站" }, "geometry": { "type": "Point", "coordinates": [ 121.501082982431384, 25.125584855497433 ] } },
{ "type": "Feature", "properties": { "FID CODE": 8, "NAME": "唭哩岸站" }, "geometry": { "type": "Point", "coordinates": [ 121.506264810466504, 25.12085794562379 ] } },
{ "type": "Feature", "properties": { "FID CODE": 9, "NAME": "石牌站" }, "geometry": { "type": "Point", "coordinates": [ 121.515642284870268, 25.114420305321463 ] } },
{ "type": "Feature", "properties": { "FID CODE": 10, "NAME": "明德站" }, "geometry": { "type": "Point", "coordinates": [ 121.518820409163766, 25.109793935885591 ] } },
{ "type": "Feature", "properties": { "FID CODE": 11, "NAME": "芝山站" }, "geometry": { "type": "Point", "coordinates": [ 121.522542284583125, 25.102811027227759 ] } },
{ "type": "Feature", "properties": { "FID CODE": 12, "NAME": "圓山站" }, "geometry": { "type": "Point", "coordinates": [ 121.520131784780531, 25.071380222093712 ] } },
{ "type": "Feature", "properties": { "FID CODE": 13, "NAME": "劍潭站" }, "geometry": { "type": "Point", "coordinates": [ 121.524969141643226, 25.084236417468688 ] } },
{ "type": "Feature", "properties": { "FID CODE": 14, "NAME": "士林站" }, "geometry": { "type": "Point", "coordinates": [ 121.526191542039385, 25.093473979666292 ] } },
{ "type": "Feature", "properties": { "FID CODE": 15, "NAME": "民權西路站" }, "geometry": { "type": "Point", "coordinates": [ 121.519362740279291, 25.062876665363369 ] } },
{ "type": "Feature", "properties": { "FID CODE": 16, "NAME": "雙連站" }, "geometry": { "type": "Point", "coordinates": [ 121.520709993016141, 25.057646860243771 ] } },
{ "type": "Feature", "properties": { "FID CODE": 17, "NAME": "中山站" }, "geometry": { "type": "Point", "coordinates": [ 121.52039689994804, 25.052675664748175 ] } },
{ "type": "Feature", "properties": { "FID CODE": 18, "NAME": "臺大醫院站" }, "geometry": { "type": "Point", "coordinates": [ 121.516220077324292, 25.041827029154884 ] } },
{ "type": "Feature", "properties": { "FID CODE": 19, "NAME": "動物園站" }, "geometry": { "type": "Point", "coordinates": [ 121.579325076291354, 24.998277485280251 ] } },
{ "type": "Feature", "properties": { "FID CODE": 20, "NAME": "木柵站" }, "geometry": { "type": "Point", "coordinates": [ 121.573175981861354, 24.998253352528412 ] } },
{ "type": "Feature", "properties": { "FID CODE": 21, "NAME": "萬芳社區站" }, "geometry": { "type": "Point", "coordinates": [ 121.568066678678619, 24.998607713500114 ] } },
{ "type": "Feature", "properties": { "FID CODE": 22, "NAME": "萬芳醫院站" }, "geometry": { "type": "Point", "coordinates": [ 121.558028561334524, 24.999504452038764 ] } },
{ "type": "Feature", "properties": { "FID CODE": 23, "NAME": "辛亥站" }, "geometry": { "type": "Point", "coordinates": [ 121.557010243552966, 25.005383562847964 ] } },
{ "type": "Feature", "properties": { "FID CODE": 24, "NAME": "麟光站" }, "geometry": { "type": "Point", "coordinates": [ 121.558827032037442, 25.018523230734115 ] } },
{ "type": "Feature", "properties": { "FID CODE": 25, "NAME": "六張犁站" }, "geometry": { "type": "Point", "coordinates": [ 121.553057973180827, 25.023844875733175 ] } },
{ "type": "Feature", "properties": { "FID CODE": 26, "NAME": "科技大樓站" }, "geometry": { "type": "Point", "coordinates": [ 121.543451471945389, 25.025991976477005 ] } },
{ "type": "Feature", "properties": { "FID CODE": 27, "NAME": "大安站" }, "geometry": { "type": "Point", "coordinates": [ 121.543626108364407, 25.0328205730737 ] } },
{ "type": "Feature", "properties": { "FID CODE": 28, "NAME": "中山國中站" }, "geometry": { "type": "Point", "coordinates": [ 121.544216438630329, 25.060806112702728 ] } },
{ "type": "Feature", "properties": { "FID CODE": 29, "NAME": "南港站" }, "geometry": { "type": "Point", "coordinates": [ 121.607634208347378, 25.052178378321834 ] } },
{ "type": "Feature", "properties": { "FID CODE": 30, "NAME": "昆陽站" }, "geometry": { "type": "Point", "coordinates": [ 121.593020112386299, 25.050188656620406 ] } },
{ "type": "Feature", "properties": { "FID CODE": 31, "NAME": "後山埤站" }, "geometry": { "type": "Point", "coordinates": [ 121.582004076982756, 25.044278553628139 ] } },
{ "type": "Feature", "properties": { "FID CODE": 32, "NAME": "永春站" }, "geometry": { "type": "Point", "coordinates": [ 121.575872858647358, 25.040863616679307 ] } },
{ "type": "Feature", "properties": { "FID CODE": 33, "NAME": "市政府站" }, "geometry": { "type": "Point", "coordinates": [ 121.565259454056502, 25.04117889109046 ] } },
{ "type": "Feature", "properties": { "FID CODE": 34, "NAME": "國父紀念館" }, "geometry": { "type": "Point", "coordinates": [ 121.557688949267799, 25.041347467453011 ] } },
{ "type": "Feature", "properties": { "FID CODE": 35, "NAME": "忠孝敦化站" }, "geometry": { "type": "Point", "coordinates": [ 121.549655956280773, 25.04149480094372 ] } },
{ "type": "Feature", "properties": { "FID CODE": 36, "NAME": "忠孝復興站" }, "geometry": { "type": "Point", "coordinates": [ 121.54379399916067, 25.041602162432408 ] } },
{ "type": "Feature", "properties": { "FID CODE": 37, "NAME": "台電大樓站" }, "geometry": { "type": "Point", "coordinates": [ 121.528187325800715, 25.020692681447649 ] } },
{ "type": "Feature", "properties": { "FID CODE": 38, "NAME": "景美站" }, "geometry": { "type": "Point", "coordinates": [ 121.540920992125194, 24.993178356596204 ] } },
{ "type": "Feature", "properties": { "FID CODE": 39, "NAME": "頂溪站" }, "geometry": { "type": "Point", "coordinates": [ 121.515449880246948, 25.013618645684399 ] } },
{ "type": "Feature", "properties": { "FID CODE": 40, "NAME": "江子翠站" }, "geometry": { "type": "Point", "coordinates": [ 121.472236760600097, 25.029904942785876 ] } },
{ "type": "Feature", "properties": { "FID CODE": 41, "NAME": "龍山寺站" }, "geometry": { "type": "Point", "coordinates": [ 121.501220861890289, 25.035229130503158 ] } },
{ "type": "Feature", "properties": { "FID CODE": 42, "NAME": "板橋站" }, "geometry": { "type": "Point", "coordinates": [ 121.462881789857036, 25.014297124383827 ] } },
{ "type": "Feature", "properties": { "FID CODE": 43, "NAME": "府中站" }, "geometry": { "type": "Point", "coordinates": [ 121.45921891977315, 25.008934844943454 ] } },
{ "type": "Feature", "properties": { "FID CODE": 44, "NAME": "亞東醫院站" }, "geometry": { "type": "Point", "coordinates": [ 121.452648875983016, 24.998589027397475 ] } },
{ "type": "Feature", "properties": { "FID CODE": 45, "NAME": "土城站" }, "geometry": { "type": "Point", "coordinates": [ 121.444451578131805, 24.97322601982389 ] } },
{ "type": "Feature", "properties": { "FID CODE": 46, "NAME": "永寧站" }, "geometry": { "type": "Point", "coordinates": [ 121.436827296366758, 24.967220823923835 ] } },
{ "type": "Feature", "properties": { "FID CODE": 47, "NAME": "大坪林站" }, "geometry": { "type": "Point", "coordinates": [ 121.541366034603797, 24.982913833396669 ] } },
{ "type": "Feature", "properties": { "FID CODE": 48, "NAME": "景安站" }, "geometry": { "type": "Point", "coordinates": [ 121.505090778182804, 24.993922031758036 ] } },
{ "type": "Feature", "properties": { "FID CODE": 49, "NAME": "新埔站" }, "geometry": { "type": "Point", "coordinates": [ 121.467987028282309, 25.022995948446365 ] } },
{ "type": "Feature", "properties": { "FID CODE": 50, "NAME": "善導寺站" }, "geometry": { "type": "Point", "coordinates": [ 121.523340188583106, 25.044813009018718 ] } },
{ "type": "Feature", "properties": { "FID CODE": 51, "NAME": "小南門站" }, "geometry": { "type": "Point", "coordinates": [ 121.510781764249003, 25.035672778690685 ] } },
{ "type": "Feature", "properties": { "FID CODE": 52, "NAME": "中正紀念堂" }, "geometry": { "type": "Point", "coordinates": [ 121.517049319552754, 25.03427427019356 ] } },
{ "type": "Feature", "properties": { "FID CODE": 53, "NAME": "古亭站" }, "geometry": { "type": "Point", "coordinates": [ 121.522567940844638, 25.026885634859767 ] } },
{ "type": "Feature", "properties": { "FID CODE": 54, "NAME": "忠孝新生站" }, "geometry": { "type": "Point", "coordinates": [ 121.532918758413075, 25.042354841091935 ] } },
{ "type": "Feature", "properties": { "FID CODE": 55, "NAME": "台北車站" }, "geometry": { "type": "Point", "coordinates": [ 121.517438024645301, 25.046233083441123 ] } },
{ "type": "Feature", "properties": { "FID CODE": 56, "NAME": "西門站" }, "geometry": { "type": "Point", "coordinates": [ 121.508487733598571, 25.042212597087047 ] } },
{ "type": "Feature", "properties": { "FID CODE": 57, "NAME": "南港展覽館站" }, "geometry": { "type": "Point", "coordinates": [ 121.61762249277858, 25.054565679177699 ] } },
{ "type": "Feature", "properties": { "FID CODE": 58, "NAME": "大直站" }, "geometry": { "type": "Point", "coordinates": [ 121.548148559834573, 25.080477334160324 ] } },
{ "type": "Feature", "properties": { "FID CODE": 59, "NAME": "西湖站" }, "geometry": { "type": "Point", "coordinates": [ 121.567212457779306, 25.082161414738209 ] } },
{ "type": "Feature", "properties": { "FID CODE": 60, "NAME": "港墘站" }, "geometry": { "type": "Point", "coordinates": [ 121.575283118433475, 25.079995003678402 ] } },
{ "type": "Feature", "properties": { "FID CODE": 61, "NAME": "文德站" }, "geometry": { "type": "Point", "coordinates": [ 121.584968515432209, 25.078533106268527 ] } },
{ "type": "Feature", "properties": { "FID CODE": 62, "NAME": "內湖站" }, "geometry": { "type": "Point", "coordinates": [ 121.594205870194529, 25.083505565019824 ] } },
{ "type": "Feature", "properties": { "FID CODE": 63, "NAME": "大湖公園站" }, "geometry": { "type": "Point", "coordinates": [ 121.602312907046695, 25.083808666388968 ] } },
{ "type": "Feature", "properties": { "FID CODE": 64, "NAME": "葫洲站" }, "geometry": { "type": "Point", "coordinates": [ 121.607241545769568, 25.072689271218778 ] } },
{ "type": "Feature", "properties": { "FID CODE": 65, "NAME": "東湖站" }, "geometry": { "type": "Point", "coordinates": [ 121.611737232053514, 25.067577952984269 ] } },
{ "type": "Feature", "properties": { "FID CODE": 66, "NAME": "南港軟體園區站" }, "geometry": { "type": "Point", "coordinates": [ 121.615954181594986, 25.0598989938964 ] } },
{ "type": "Feature", "properties": { "FID CODE": 67, "NAME": "海山站" }, "geometry": { "type": "Point", "coordinates": [ 121.448875286152528, 24.985548276090636 ] } },
{ "type": "Feature", "properties": { "FID CODE": 68, "NAME": "南京復興站" }, "geometry": { "type": "Point", "coordinates": [ 121.54403933590369, 25.052292279432056 ] } },
{ "type": "Feature", "properties": { "FID CODE": 69, "NAME": "萬隆站" }, "geometry": { "type": "Point", "coordinates": [ 121.539002269541726, 25.001965325198679 ] } },
{ "type": "Feature", "properties": { "FID CODE": 70, "NAME": "公館站" }, "geometry": { "type": "Point", "coordinates": [ 121.534347031885559, 25.01470748237314 ] } },
{ "type": "Feature", "properties": { "FID CODE": 71, "NAME": "復興崗站" }, "geometry": { "type": "Point", "coordinates": [ 121.485208135351613, 25.137446811852804 ] } },
{ "type": "Feature", "properties": { "FID CODE": 72, "NAME": "七張站" }, "geometry": { "type": "Point", "coordinates": [ 121.542910905765979, 24.975082925897777 ] } },
{ "type": "Feature", "properties": { "FID CODE": 73, "NAME": "新店市公所" }, "geometry": { "type": "Point", "coordinates": [ 121.541298655934227, 24.967394430808099 ] } },
{ "type": "Feature", "properties": { "FID CODE": 74, "NAME": "新店站" }, "geometry": { "type": "Point", "coordinates": [ 121.537610041051892, 24.957871647770506 ] } },
{ "type": "Feature", "properties": { "FID CODE": 75, "NAME": "南勢角站" }, "geometry": { "type": "Point", "coordinates": [ 121.509172646459419, 24.990408531519861 ] } },
{ "type": "Feature", "properties": { "FID CODE": 76, "NAME": "永安市場站" }, "geometry": { "type": "Point", "coordinates": [ 121.511125386970477, 25.002555879534821 ] } },
{ "type": "Feature", "properties": { "FID CODE": 77, "NAME": "行天宮站" }, "geometry": { "type": "Point", "coordinates": [ 121.533156373815416, 25.057966034949423 ] } },
{ "type": "Feature", "properties": { "FID CODE": 78, "NAME": "中山國小站" }, "geometry": { "type": "Point", "coordinates": [ 121.527664472284201, 25.062650999595398 ] } },
{ "type": "Feature", "properties": { "FID CODE": 79, "NAME": "台北橋站" }, "geometry": { "type": "Point", "coordinates": [ 121.499867980261229, 25.062943649795628 ] } },
{ "type": "Feature", "properties": { "FID CODE": 80, "NAME": "菜寮站" }, "geometry": { "type": "Point", "coordinates": [ 121.49113831824576, 25.059648334719515 ] } },
{ "type": "Feature", "properties": { "FID CODE": 81, "NAME": "三重站" }, "geometry": { "type": "Point", "coordinates": [ 121.483946555371489, 25.055599499062609 ] } },
{ "type": "Feature", "properties": { "FID CODE": 82, "NAME": "三重國小站" }, "geometry": { "type": "Point", "coordinates": [ 121.497440896473989, 25.069935147639686 ] } },
{ "type": "Feature", "properties": { "FID CODE": 83, "NAME": "三和國中站" }, "geometry": { "type": "Point", "coordinates": [ 121.486347260470012, 25.0768077912848 ] } },
{ "type": "Feature", "properties": { "FID CODE": 84, "NAME": "徐匯中學站" }, "geometry": { "type": "Point", "coordinates": [ 121.479616095318406, 25.080741786677319 ] } },
{ "type": "Feature", "properties": { "FID CODE": 85, "NAME": "三民高中站" }, "geometry": { "type": "Point", "coordinates": [ 121.473240934344062, 25.085670389689398 ] } },
{ "type": "Feature", "properties": { "FID CODE": 86, "NAME": "蘆洲站" }, "geometry": { "type": "Point", "coordinates": [ 121.464357337130153, 25.091563669599626 ] } },
{ "type": "Feature", "properties": { "FID CODE": 87, "NAME": "輔大站" }, "geometry": { "type": "Point", "coordinates": [ 121.435812419816287, 25.032768730074984 ] } },
{ "type": "Feature", "properties": { "FID CODE": 88, "NAME": "先嗇宮站" }, "geometry": { "type": "Point", "coordinates": [ 121.472122793616904, 25.046526870908441 ] } },
{ "type": "Feature", "properties": { "FID CODE": 89, "NAME": "頭前庄站" }, "geometry": { "type": "Point", "coordinates": [ 121.46162455915298, 25.039607331082859 ] } },
{ "type": "Feature", "properties": { "FID CODE": 90, "NAME": "新莊站" }, "geometry": { "type": "Point", "coordinates": [ 121.452317896756483, 25.03614790870418 ] } },
{ "type": "Feature", "properties": { "FID CODE": 91, "NAME": "松江南京站" }, "geometry": { "type": "Point", "coordinates": [ 121.533070364754082, 25.052409478910175 ] } },
{ "type": "Feature", "properties": { "FID CODE": 92, "NAME": "小碧潭站" }, "geometry": { "type": "Point", "coordinates": [ 121.535297842544452, 24.969554205353514 ] } },
{ "type": "Feature", "properties": { "FID CODE": 93, "NAME": "松山機場站" }, "geometry": { "type": "Point", "coordinates": [ 121.551635110465341, 25.063104462027813 ] } },
{ "type": "Feature", "properties": { "FID CODE": 94, "NAME": "大橋頭站" }, "geometry": { "type": "Point", "coordinates": [ 121.512848779450607, 25.062922384403873 ] } },
{ "type": "Feature", "properties": { "FID CODE": 95, "NAME": "東門站" }, "geometry": { "type": "Point", "coordinates": [ 121.528321773158339, 25.033927618168192 ] } },
{ "type": "Feature", "properties": { "FID CODE": 96, "NAME": "劍南路站" }, "geometry": { "type": "Point", "coordinates": [ 121.555607153589477, 25.08489845647162 ] } },
{ "type": "Feature", "properties": { "FID CODE": 97, "NAME": "迴龍站" }, "geometry": { "type": "Point", "coordinates": [ 121.412662793256644, 25.02251715705777 ] } },
{ "type": "Feature", "properties": { "FID CODE": 98, "NAME": "丹鳳站" }, "geometry": { "type": "Point", "coordinates": [ 121.422699072520103, 25.028921091574322 ] } },
{ "type": "Feature", "properties": { "FID CODE": 99, "NAME": "台北101/世貿站" }, "geometry": { "type": "Point", "coordinates": [ 121.563490094538835, 25.032979479154871 ] } },
{ "type": "Feature", "properties": { "FID CODE": 100, "NAME": "大安森林公園站" }, "geometry": { "type": "Point", "coordinates": [ 121.535308028431402, 25.03353525107303 ] } },
{ "type": "Feature", "properties": { "FID CODE": 101, "NAME": "信義安和站" }, "geometry": { "type": "Point", "coordinates": [ 121.553232530756716, 25.033150042546591 ] } },
{ "type": "Feature", "properties": { "FID CODE": 102, "NAME": "象山站" }, "geometry": { "type": "Point", "coordinates": [ 121.570666336911756, 25.032793324340496 ] } },
{ "type": "Feature", "properties": { "FID CODE": 103, "NAME": "南京復興站" }, "geometry": { "type": "Point", "coordinates": [ 121.543576861092546, 25.051869806105149 ] } },
{ "type": "Feature", "properties": { "FID CODE": 104, "NAME": "松江南京站" }, "geometry": { "type": "Point", "coordinates": [ 121.533049259548932, 25.052024514344147 ] } },
{ "type": "Feature", "properties": { "FID CODE": 105, "NAME": "松山站" }, "geometry": { "type": "Point", "coordinates": [ 121.577733392376473, 25.050001706485414 ] } },
{ "type": "Feature", "properties": { "FID CODE": 106, "NAME": "南京三民站" }, "geometry": { "type": "Point", "coordinates": [ 121.564396882840398, 25.051436320912011 ] } },
{ "type": "Feature", "properties": { "FID CODE": 107, "NAME": "台北小巨蛋站" }, "geometry": { "type": "Point", "coordinates": [ 121.552003155287579, 25.05164724218637 ] } },
{ "type": "Feature", "properties": { "FID CODE": 108, "NAME": "北門站" }, "geometry": { "type": "Point", "coordinates": [ 121.510278645911299, 25.049294237623993 ] } },
{ "type": "Feature", "properties": { "FID CODE": 109, "NAME": "中山站" }, "geometry": { "type": "Point", "coordinates": [ 121.52039689994804, 25.052675664748175 ] } },
{ "type": "Feature", "properties": { "FID CODE": 110, "NAME": "頭前庄站" }, "geometry": { "type": "Point", "coordinates": [ 121.46162455915298, 25.039607331082845 ] } },
{ "type": "Feature", "properties": { "FID CODE": 111, "NAME": "板橋站" }, "geometry": { "type": "Point", "coordinates": [ 121.462881789857036, 25.014297124383823 ] } },
{ "type": "Feature", "properties": { "FID CODE": 112, "NAME": "景安站" }, "geometry": { "type": "Point", "coordinates": [ 121.505090778182776, 24.993922031758022 ] } },
{ "type": "Feature", "properties": { "FID CODE": 113, "NAME": "景平站" }, "geometry": { "type": "Point", "coordinates": [ 121.515947214601894, 24.9921677687474 ] } },
{ "type": "Feature", "properties": { "FID CODE": 114, "NAME": "秀朗橋站" }, "geometry": { "type": "Point", "coordinates": [ 121.524120277654674, 24.990460284257288 ] } },
{ "type": "Feature", "properties": { "FID CODE": 115, "NAME": "十四張站" }, "geometry": { "type": "Point", "coordinates": [ 121.528681334144267, 24.983975049022394 ] } },
{ "type": "Feature", "properties": { "FID CODE": 116, "NAME": "板新站" }, "geometry": { "type": "Point", "coordinates": [ 121.472930395135819, 25.014002570888305 ] } },
{ "type": "Feature", "properties": { "FID CODE": 117, "NAME": "中原站" }, "geometry": { "type": "Point", "coordinates": [ 121.483354339743215, 25.008508753264476 ] } },
{ "type": "Feature", "properties": { "FID CODE": 118, "NAME": "橋和站" }, "geometry": { "type": "Point", "coordinates": [ 121.490226302106791, 25.004590667817993 ] } },
{ "type": "Feature", "properties": { "FID CODE": 119, "NAME": "中和站" }, "geometry": { "type": "Point", "coordinates": [ 121.49685451610128, 25.001725087459377 ] } },
{ "type": "Feature", "properties": { "FID CODE": 120, "NAME": "幸福站" }, "geometry": { "type": "Point", "coordinates": [ 121.459901946566475, 25.049783726031855 ] } },
{ "type": "Feature", "properties": { "FID CODE": 121, "NAME": "新北產業園區站" }, "geometry": { "type": "Point", "coordinates": [ 121.459577855606668, 25.061081616149394 ] } },
{ "type": "Feature", "properties": { "FID CODE": 122, "NAME": "大坪林站" }, "geometry": { "type": "Point", "coordinates": [ 121.541366034603797, 24.982913833396648 ] } },
{ "type": "Feature", "properties": { "FID CODE": 123, "NAME": "新埔民生站" }, "geometry": { "type": "Point", "coordinates": [ 121.467987028282309, 25.022995948446358 ] } }
]
}
